~Version
VERS.  3.0 : CWLS LOG ASCII STANDARD -VERSION 3.0
WRAP.  NO  : ONE LINE PER DEPTH STEP
DLM .  COMMA : DELIMITING CHARACTER
~Well
STRT.M  1500.00 : START DEPTH
STOP.M  1599.50 : STOP DEPTH
STEP.M  0.50 : STEP
NULL.   -999.25 : NULL VALUE
WELL.   PETRO L3-5 : WELL
~Log_Definition
DEPT.M     : Depth {F}
GR  .GAPI  : Gamma ray {F}
RT  .OHMM  : Deep resistivity {F}
RHOB.G/C3  : Bulk density {F}
NPHI.PU    : Neutron porosity {F}
~Log_Data | Log_Definition
1500.00,120.0000,2.000000,2.5500,35.000
1500.50,120.0000,2.000000,2.5500,35.000
1501.00,120.0000,2.000000,2.5500,35.000
1501.50,120.0000,2.000000,2.5500,35.000
1502.00,120.0000,2.000000,2.5500,35.000
1502.50,120.0000,2.000000,2.5500,35.000
1503.00,120.0000,2.000000,2.5500,35.000
1503.50,120.0000,2.000000,2.5500,35.000
1504.00,120.0000,2.000000,2.5500,35.000
1504.50,120.0000,2.000000,2.5500,35.000
1505.00,120.0000,2.000000,2.5500,35.000
1505.50,120.0000,2.000000,2.5500,35.000
1506.00,120.0000,2.000000,2.5500,35.000
1506.50,120.0000,2.000000,2.5500,35.000
1507.00,120.0000,2.000000,2.5500,35.000
1507.50,120.0000,2.000000,2.5500,35.000
1508.00,120.0000,2.000000,2.5500,35.000
1508.50,120.0000,2.000000,2.5500,35.000
1509.00,120.0000,2.000000,2.5500,35.000
1509.50,120.0000,2.000000,2.5500,35.000
1510.00,120.0000,2.000000,2.5500,35.000
1510.50,120.0000,2.000000,2.5500,35.000
1511.00,120.0000,2.000000,2.5500,35.000
1511.50,120.0000,2.000000,2.5500,35.000
1512.00,120.0000,2.000000,2.5500,35.000
1512.50,120.0000,2.000000,2.5500,35.000
1513.00,120.0000,2.000000,2.5500,35.000
1513.50,120.0000,2.000000,2.5500,35.000
1514.00,120.0000,2.000000,2.5500,35.000
1514.50,120.0000,2.000000,2.5500,35.000
1515.00,120.0000,2.000000,2.5500,35.000
1515.50,120.0000,2.000000,2.5500,35.000
1516.00,120.0000,2.000000,2.5500,35.000
1516.50,120.0000,2.000000,2.5500,35.000
1517.00,120.0000,2.000000,2.5500,35.000
1517.50,120.0000,2.000000,2.5500,35.000
1518.00,120.0000,2.000000,2.5500,35.000
1518.50,120.0000,2.000000,2.5500,35.000
1519.00,120.0000,2.000000,2.5500,35.000
1519.50,120.0000,2.000000,2.5500,35.000
1520.00,120.0000,2.000000,2.5500,35.000
1520.50,120.0000,2.000000,2.5500,35.000
1521.00,120.0000,2.000000,2.5500,35.000
1521.50,120.0000,2.000000,2.5500,35.000
1522.00,120.0000,2.000000,2.5500,35.000
1522.50,120.0000,2.000000,2.5500,35.000
1523.00,120.0000,2.000000,2.5500,35.000
1523.50,120.0000,2.000000,2.5500,35.000
1524.00,120.0000,2.000000,2.5500,35.000
1524.50,120.0000,2.000000,2.5500,35.000
1525.00,20.0000,12.800000,2.2375,25.000
1525.50,20.0000,12.800000,2.2375,25.000
1526.00,20.0000,12.800000,2.2375,25.000
1526.50,20.0000,12.800000,2.2375,25.000
1527.00,20.0000,12.800000,2.2375,25.000
1527.50,20.0000,12.800000,2.2375,25.000
1528.00,20.0000,12.800000,2.2375,25.000
1528.50,20.0000,12.800000,2.2375,25.000
1529.00,20.0000,12.800000,2.2375,25.000
1529.50,20.0000,12.800000,2.2375,25.000
1530.00,20.0000,12.800000,2.2375,25.000
1530.50,20.0000,12.800000,2.2375,25.000
1531.00,20.0000,12.800000,2.2375,25.000
1531.50,20.0000,12.800000,2.2375,25.000
1532.00,20.0000,12.800000,2.2375,25.000
1532.50,20.0000,12.800000,2.2375,25.000
1533.00,20.0000,12.800000,2.2375,25.000
1533.50,20.0000,12.800000,2.2375,25.000
1534.00,20.0000,12.800000,2.2375,25.000
1534.50,20.0000,12.800000,2.2375,25.000
1535.00,20.0000,12.800000,2.2375,25.000
1535.50,20.0000,12.800000,2.2375,25.000
1536.00,20.0000,12.800000,2.2375,25.000
1536.50,20.0000,12.800000,2.2375,25.000
1537.00,20.0000,12.800000,2.2375,25.000
1537.50,20.0000,12.800000,2.2375,25.000
1538.00,20.0000,12.800000,2.2375,25.000
1538.50,20.0000,12.800000,2.2375,25.000
1539.00,20.0000,12.800000,2.2375,25.000
1539.50,20.0000,12.800000,2.2375,25.000
1540.00,20.0000,12.800000,2.2375,25.000
1540.50,20.0000,12.800000,2.2375,25.000
1541.00,20.0000,12.800000,2.2375,25.000
1541.50,20.0000,12.800000,2.2375,25.000
1542.00,20.0000,12.800000,2.2375,25.000
1542.50,20.0000,12.800000,2.2375,25.000
1543.00,20.0000,12.800000,2.2375,25.000
1543.50,20.0000,12.800000,2.2375,25.000
1544.00,20.0000,12.800000,2.2375,25.000
1544.50,20.0000,12.800000,2.2375,25.000
1545.00,20.0000,12.800000,2.2375,25.000
1545.50,20.0000,12.800000,2.2375,25.000
1546.00,20.0000,12.800000,2.2375,25.000
1546.50,20.0000,12.800000,2.2375,25.000
1547.00,20.0000,12.800000,2.2375,25.000
1547.50,20.0000,12.800000,2.2375,25.000
1548.00,20.0000,12.800000,2.2375,25.000
1548.50,20.0000,12.800000,2.2375,25.000
1549.00,20.0000,12.800000,2.2375,25.000
1549.50,20.0000,12.800000,2.2375,25.000
1550.00,120.0000,2.000000,2.5500,35.000
1550.50,120.0000,2.000000,2.5500,35.000
1551.00,120.0000,2.000000,2.5500,35.000
1551.50,120.0000,2.000000,2.5500,35.000
1552.00,120.0000,2.000000,2.5500,35.000
1552.50,120.0000,2.000000,2.5500,35.000
1553.00,120.0000,2.000000,2.5500,35.000
1553.50,120.0000,2.000000,2.5500,35.000
1554.00,120.0000,2.000000,2.5500,35.000
1554.50,120.0000,2.000000,2.5500,35.000
1555.00,120.0000,2.000000,2.5500,35.000
1555.50,120.0000,2.000000,2.5500,35.000
1556.00,120.0000,2.000000,2.5500,35.000
1556.50,120.0000,2.000000,2.5500,35.000
1557.00,120.0000,2.000000,2.5500,35.000
1557.50,120.0000,2.000000,2.5500,35.000
1558.00,120.0000,2.000000,2.5500,35.000
1558.50,120.0000,2.000000,2.5500,35.000
1559.00,120.0000,2.000000,2.5500,35.000
1559.50,120.0000,2.000000,2.5500,35.000
1560.00,120.0000,2.000000,2.5500,35.000
1560.50,120.0000,2.000000,2.5500,35.000
1561.00,120.0000,2.000000,2.5500,35.000
1561.50,120.0000,2.000000,2.5500,35.000
1562.00,120.0000,2.000000,2.5500,35.000
1562.50,120.0000,2.000000,2.5500,35.000
1563.00,120.0000,2.000000,2.5500,35.000
1563.50,120.0000,2.000000,2.5500,35.000
1564.00,120.0000,2.000000,2.5500,35.000
1564.50,120.0000,2.000000,2.5500,35.000
1565.00,120.0000,2.000000,2.5500,35.000
1565.50,120.0000,2.000000,2.5500,35.000
1566.00,120.0000,2.000000,2.5500,35.000
1566.50,120.0000,2.000000,2.5500,35.000
1567.00,120.0000,2.000000,2.5500,35.000
1567.50,120.0000,2.000000,2.5500,35.000
1568.00,120.0000,2.000000,2.5500,35.000
1568.50,120.0000,2.000000,2.5500,35.000
1569.00,120.0000,2.000000,2.5500,35.000
1569.50,120.0000,2.000000,2.5500,35.000
1570.00,120.0000,2.000000,2.5500,35.000
1570.50,120.0000,2.000000,2.5500,35.000
1571.00,120.0000,2.000000,2.5500,35.000
1571.50,120.0000,2.000000,2.5500,35.000
1572.00,120.0000,2.000000,2.5500,35.000
1572.50,120.0000,2.000000,2.5500,35.000
1573.00,120.0000,2.000000,2.5500,35.000
1573.50,120.0000,2.000000,2.5500,35.000
1574.00,120.0000,2.000000,2.5500,35.000
1574.50,120.0000,2.000000,2.5500,35.000
1575.00,20.0000,1.033058,2.2870,22.000
1575.50,20.0000,1.033058,2.2870,22.000
1576.00,20.0000,1.033058,2.2870,22.000
1576.50,20.0000,1.033058,2.2870,22.000
1577.00,20.0000,1.033058,2.2870,22.000
1577.50,20.0000,1.033058,2.2870,22.000
1578.00,20.0000,1.033058,2.2870,22.000
1578.50,20.0000,1.033058,2.2870,22.000
1579.00,20.0000,1.033058,2.2870,22.000
1579.50,20.0000,1.033058,2.2870,22.000
1580.00,20.0000,1.033058,2.2870,22.000
1580.50,20.0000,1.033058,2.2870,22.000
1581.00,20.0000,1.033058,2.2870,22.000
1581.50,20.0000,1.033058,2.2870,22.000
1582.00,20.0000,1.033058,2.2870,22.000
1582.50,20.0000,1.033058,2.2870,22.000
1583.00,20.0000,1.033058,2.2870,22.000
1583.50,20.0000,1.033058,2.2870,22.000
1584.00,20.0000,1.033058,2.2870,22.000
1584.50,20.0000,1.033058,2.2870,22.000
1585.00,20.0000,1.033058,2.2870,22.000
1585.50,20.0000,1.033058,2.2870,22.000
1586.00,20.0000,1.033058,2.2870,22.000
1586.50,20.0000,1.033058,2.2870,22.000
1587.00,20.0000,1.033058,2.2870,22.000
1587.50,20.0000,1.033058,2.2870,22.000
1588.00,20.0000,1.033058,2.2870,22.000
1588.50,20.0000,1.033058,2.2870,22.000
1589.00,20.0000,1.033058,2.2870,22.000
1589.50,20.0000,1.033058,2.2870,22.000
1590.00,20.0000,1.033058,2.2870,22.000
1590.50,20.0000,1.033058,2.2870,22.000
1591.00,20.0000,1.033058,2.2870,22.000
1591.50,20.0000,1.033058,2.2870,22.000
1592.00,20.0000,1.033058,2.2870,22.000
1592.50,20.0000,1.033058,2.2870,22.000
1593.00,20.0000,1.033058,2.2870,22.000
1593.50,20.0000,1.033058,2.2870,22.000
1594.00,20.0000,1.033058,2.2870,22.000
1594.50,20.0000,1.033058,2.2870,22.000
1595.00,20.0000,1.033058,2.2870,22.000
1595.50,20.0000,1.033058,2.2870,22.000
1596.00,20.0000,1.033058,2.2870,22.000
1596.50,20.0000,1.033058,2.2870,22.000
1597.00,20.0000,1.033058,2.2870,22.000
1597.50,20.0000,1.033058,2.2870,22.000
1598.00,20.0000,1.033058,2.2870,22.000
1598.50,20.0000,1.033058,2.2870,22.000
1599.00,20.0000,1.033058,2.2870,22.000
1599.50,20.0000,1.033058,2.2870,22.000
