~VERSION INFORMATION
 VERS.                 2.0 :   CWLS LOG ASCII STANDARD -VERSION 2.0
 WRAP.                  NO :   ONE LINE PER DEPTH STEP
~WELL INFORMATION
 STRT.M        1200.000 :
 STOP.M        1203.900 :
 STEP.M        0.100 :
 WELL.   TL-7 :   WELL
 NULL.            -9999 :   NULL VALUE
~CURVE INFORMATION
 DEPTH.M        :   Depth
 GR_EDTC.GAPI   :   Gamma ray EDTC
 TNPH_LS.V/V    :   Thermal neutron porosity (limestone)
 PEFZ.B/E       :   Photoelectric factor
~A
1200.000	60.0000	0.2200	-9999
1200.100	65.6949	0.2255	3.1683
1200.200	71.2737	0.2310	3.1819
1200.300	76.6229	0.2364	3.0282
1200.400	81.6334	0.2415	2.8486
1200.500	86.2031	0.2464	2.8082
1200.600	90.2390	0.2509	2.9441
1200.700	93.6588	0.2551	3.1314
1200.800	96.3929	0.2588	3.1979
1200.900	98.3855	0.2621	-9999
1201.000	99.5961	0.2648	2.8912
1201.100	100.0000	0.2670	2.8000
1201.200	99.5889	0.2686	2.8927
1201.300	98.3713	0.2696	3.0840
1201.400	96.3719	0.2700	3.1981
1201.500	93.6315	0.2698	3.1301
1201.600	90.2059	0.2689	2.9424
1201.700	86.1649	0.2675	2.8077
1201.800	81.5908	0.2655	-9999
1201.900	76.5769	0.2629	3.0300
1202.000	71.2252	0.2598	3.1826
1202.100	65.6448	0.2562	3.1673
1202.200	59.9494	0.2521	2.9982
1202.300	54.2551	0.2477	2.8308
1202.400	48.6778	0.2429	2.8189
1202.500	43.3311	0.2378	2.9735
1202.600	38.3241	0.2325	3.1525
1202.700	33.7587	0.2271	-9999
1202.800	29.7279	0.2215	3.0542
1202.900	26.3139	0.2160	2.8673
1203.000	23.5861	0.2105	2.8024
1203.100	21.6003	0.2051	2.9192
1203.200	20.3967	0.1999	3.1103
1203.300	20.0001	0.1949	3.2000
1203.400	20.4183	0.1903	3.1058
1203.500	21.6430	0.1860	2.9144
1203.600	23.6492	0.1822	-9999
1203.700	26.3959	0.1788	2.8713
1203.800	29.8273	0.1759	3.0593
1203.900	33.8734	0.1735	3.1928
