~VERSION INFORMATION
 VERS.                 2.0 :   CWLS LOG ASCII STANDARD -VERSION 2.0
 WRAP.                  NO :   ONE LINE PER DEPTH STEP
~WELL INFORMATION
 STRT.FT        5019.50 :
 STOP.FT        5000.00 :
 STEP.FT        -0.5000 :
 WELL.   HOSTILE UP-1 :   WELL
 NULL.            -999.25 :   NULL VALUE
~CURVE INFORMATION
 DEPT.FT      :   Measured depth
 GR  .GAPI    :   Gamma ray
 RHOB.G/C3    :   Bulk density
~A
5019.50 33.8734 2.3554
5019.00 29.8273 2.3751
5018.50 26.3959 2.3939
5018.00 23.6492 2.4108
5017.50 21.6430 2.4254
5017.00 20.4183 2.4369
5016.50 20.0001 2.4450
5016.00 20.3967 2.4493
5015.50 21.6003 2.4497
5015.00 23.5861 2.4460
5014.50 26.3139 2.4386
5014.00 29.7279 2.4276
5013.50 33.7587 2.4135
5013.00 38.3241 2.3969
5012.50 43.3311 2.3784
5012.00 48.6778 2.3587
5011.50 54.2551 2.3388
5011.00 59.9494 2.3193
5010.50 65.6448 2.3010
5010.00 71.2252 2.2846
5009.50 76.5769 2.2709
5009.00 81.5908 2.2603
5008.50 86.1649 2.2533
5008.00 90.2059 2.2502
5007.50 93.6315 2.2510
5007.00 96.3719 2.2558
5006.50 98.3713 2.2643
5006.00 99.5889 2.2763
5005.50 100.0000 2.2911
5005.00 99.5961 2.3084
5004.50 98.3855 2.3273
5004.00 96.3929 2.3471
5003.50 93.6588 2.3670
5003.00 90.2390 2.3862
5002.50 86.2031 2.4040
5002.00 81.6334 2.4197
5001.50 76.6229 2.4325
5001.00 71.2737 2.4421
5000.50 65.6949 2.4480
5000.00 60.0000 2.4500
